City_ID,City,Cloudiness,Country,Date,Humidity,Lat,Lng,Max Temp,Wind Speed
0,mataura,100,NZ,1572937379,81,-46.19,168.86,53.01,8.01
1,busselton,85,AU,1572937379,37,-33.64,115.35,75.0,16.37
2,ushuaia,90,AR,1572937111,80,-54.81,-68.31,39.2,10.29
3,chabahar,0,IR,1572937379,43,25.29,60.65,87.8,6.93
4,tuktoyaktuk,75,CA,1572937379,92,69.44,-133.03,15.8,6.93
5,vaini,40,IN,1572937379,69,15.34,74.49,82.4,3.36
6,new norfolk,75,AU,1572937379,33,-42.78,147.06,60.01,12.75
7,cape town,100,ZA,1572937112,56,-33.93,18.42,75.99,4.7
8,half moon bay,90,US,1572937379,93,37.46,-122.43,62.01,4.7
9,hilo,40,US,1572937379,78,19.71,-155.08,78.8,4.7
10,kapaa,90,US,1572937379,88,22.08,-159.32,75.2,5.82
11,nikolskoye,90,RU,1572937379,80,59.7,30.79,34.0,17.9
12,punta arenas,90,CL,1572937200,80,-53.16,-70.91,41.0,34.45
13,yellowknife,75,CA,1572937379,85,62.45,-114.38,15.8,14.99
14,bethel,40,US,1572937380,67,60.79,-161.76,19.4,18.34
15,atuona,5,PF,1572937380,77,-9.8,-139.03,80.26,19.17
16,avarua,100,CK,1572937230,82,-21.21,-159.78,68.0,1.12
17,ponta delgada,75,PT,1572937380,63,37.73,-25.67,60.8,5.82
18,coihaique,99,CL,1572937380,97,-45.58,-72.07,35.51,12.71
19,kearney,90,US,1572937172,93,40.7,-99.08,39.2,4.21
20,upernavik,63,GL,1572937380,64,72.79,-56.15,10.27,2.86
21,rikitea,100,PF,1572937380,89,-23.12,-134.97,75.76,4.9
22,lakatoro,100,VU,1572937380,82,-16.11,167.42,79.66,17.76
23,bluff,0,AU,1572937380,10,-23.58,149.07,91.49,19.75
24,qaanaaq,78,GL,1572937380,82,77.48,-69.36,9.0,5.84
25,mahebourg,40,MU,1572937380,65,-20.41,57.7,81.0,13.87
26,nicoya,38,CR,1572937380,74,10.15,-85.45,78.8,10.29
27,maragogi,82,BR,1572937381,74,-9.01,-35.22,78.44,16.37
28,mar del plata,21,AR,1572937381,45,-46.43,-67.52,51.17,41.56
29,cidreira,100,BR,1572937381,97,-30.17,-50.22,70.36,10.13
30,noumea,90,NC,1572937381,44,-22.28,166.46,81.0,9.17
31,hermanus,100,ZA,1572937381,50,-34.42,19.24,77.0,8.01
32,ilulissat,100,GL,1572937381,71,69.22,-51.1,24.55,5.84
33,east london,20,ZA,1572937273,64,-33.02,27.91,73.4,16.11
34,tagusao,46,PH,1572937381,74,9.19,117.81,83.84,14.76
35,port elizabeth,90,US,1572937381,87,39.31,-74.98,55.4,5.82
36,ancud,18,CL,1572937381,79,-41.87,-73.83,47.12,5.84
37,bubaque,58,GW,1572937381,83,11.28,-15.83,82.51,10.69
38,khatanga,100,RU,1572937381,94,71.98,102.47,1.69,13.42
39,penalva,46,BR,1572937381,93,-3.29,-45.17,72.7,2.21
40,sitka,0,US,1572937381,82,37.17,-99.65,36.0,10.0
41,palauig,100,PH,1572937382,82,15.44,119.9,79.09,7.38
42,kodiak,40,US,1572937382,63,39.95,-94.76,41.0,3.36
43,srednekolymsk,3,RU,1572937382,94,67.46,153.71,3.7,3.53
44,chokurdakh,100,RU,1572937382,90,70.62,147.9,6.51,9.69
45,sao filipe,100,CV,1572937382,58,14.9,-24.5,80.64,16.04
46,santiago,44,PH,1572937323,74,16.69,121.54,85.14,4.38
47,bredasdorp,100,ZA,1572937382,67,-34.53,20.04,62.6,5.82
48,port macquarie,90,AU,1572937382,52,-31.43,152.91,68.0,18.34
49,ilhabela,74,BR,1572937382,84,-23.78,-45.36,77.27,6.22
50,samoded,0,RU,1572937382,94,63.61,40.52,18.95,3.06
51,hobart,75,AU,1572937382,33,-42.88,147.33,60.01,12.75
52,talnakh,20,RU,1572937383,77,69.49,88.39,3.2,20.13
53,khasan,0,RU,1572937383,36,42.43,130.64,48.02,17.43
54,castro,53,CL,1572937383,94,-42.48,-73.76,40.01,4.34
55,ribeira grande,78,PT,1572937383,72,38.52,-28.7,57.51,8.21
56,kulu,97,CD,1572937383,96,3.47,23.69,72.5,0.18
57,jumla,0,NP,1572937383,22,29.28,82.18,58.53,5.14
58,grootfontein,20,NA,1572937383,27,-19.56,18.1,77.0,3.04
59,fort nelson,75,CA,1572937383,85,58.81,-122.69,15.8,9.17
60,faya,40,SA,1572937383,25,18.39,42.45,69.8,3.36
61,saint-philippe,90,CA,1572937383,65,45.36,-73.48,48.99,16.11
62,hami,88,CN,1572937383,18,42.84,93.51,59.83,3.36
63,victoria,75,BN,1572937208,70,5.28,115.24,89.01,9.17
64,san jose,2,HN,1572937384,93,14.25,-87.96,62.08,7.23
65,lasa,50,CY,1572937384,43,34.92,32.53,72.0,6.93
66,meulaboh,22,ID,1572937384,77,4.14,96.13,80.96,8.19
67,saint george,0,GR,1572937384,82,39.45,22.34,60.8,4.41
68,juneau,90,US,1572937384,100,58.3,-134.42,42.8,7.4
69,haines junction,100,CA,1572937384,97,60.75,-137.51,17.11,5.53
70,barrow,0,AR,1572937384,61,-38.31,-60.23,44.53,7.61
71,barranca,47,PE,1572937384,90,-10.75,-77.76,62.33,14.65
72,rawson,0,AR,1572937384,49,-43.3,-65.11,52.9,18.05
73,jiuquan,0,CN,1572937384,33,39.73,98.49,44.96,4.27
74,shahrud,0,IR,1572937384,28,36.42,54.97,47.03,2.1
75,kaliganj,38,BD,1572937384,54,23.41,89.13,85.1,4.0
76,hope,20,US,1572937384,82,33.67,-93.59,62.01,5.57
77,arraial do cabo,0,BR,1572937385,84,-22.97,-42.02,75.06,16.71
78,lianzhou,0,CN,1572937385,40,24.79,112.38,72.43,7.52
79,jacala,100,MX,1572937385,99,21.0,-99.19,62.01,1.86
80,palmer,96,AU,1572937385,32,-34.85,139.16,73.99,16.11
81,vostok,100,RU,1572937385,77,46.45,135.83,28.72,7.38
82,itupiranga,29,BR,1572937385,88,-5.13,-49.33,77.0,3.36
83,ossora,100,RU,1572937385,97,59.24,163.07,35.44,17.83
84,luderitz,83,NA,1572937385,49,-26.65,15.16,69.8,9.17
85,sisimiut,100,GL,1572937385,64,66.94,-53.67,21.76,3.51
86,port alfred,22,ZA,1572937385,81,-33.59,26.89,71.01,8.01
87,dingle,71,PH,1572937385,72,11.0,122.67,85.37,11.86
88,ritchie,0,ZA,1572937385,32,-29.03,24.6,82.4,25.28
89,virginia beach,90,US,1572937368,87,36.85,-75.98,64.4,13.51
90,zeya,100,RU,1572937385,86,53.74,127.27,20.3,12.01
91,scarborough,98,GB,1572937386,87,54.28,-0.41,51.8,10.29
92,aasiaat,100,GL,1572937386,65,68.71,-52.87,18.9,5.06
93,waingapu,0,ID,1572937386,64,-9.65,120.26,83.25,7.34
94,kidal,0,ML,1572937386,18,18.44,1.41,74.44,5.59
95,adrar,0,DZ,1572937386,39,27.87,-0.29,66.2,10.29
96,leningradskiy,69,RU,1572937386,83,69.38,178.42,15.84,2.71
97,matara,20,BI,1572937386,73,-3.48,29.48,75.2,4.79
98,wrexham,75,GB,1572937386,87,53.05,-2.99,50.0,9.17
99,kamenka,24,MD,1572937386,75,48.03,28.7,55.0,4.63
100,hithadhoo,42,MV,1572937386,70,-0.6,73.08,82.04,3.56
101,punta alta,75,AR,1572937386,100,-27.46,-55.82,73.4,8.05
102,ruginoasa,0,RO,1572937387,62,47.24,26.85,64.0,4.7
103,jamestown,18,AU,1572937387,22,-33.21,138.6,70.99,14.25
104,kahului,20,US,1572937213,78,20.89,-156.47,77.0,9.48
105,sept-iles,40,CA,1572937205,86,50.2,-66.38,26.6,6.93
106,college,1,US,1572937387,77,64.86,-147.8,12.99,5.82
107,san pedro,1,AR,1572937387,96,-33.68,-59.66,61.0,1.01
108,ust-nera,66,RU,1572937387,98,64.57,143.24,-4.13,3.98
109,guadalupe victoria,91,MX,1572937387,76,21.68,-105.33,82.0,4.79
110,aklavik,20,CA,1572937387,85,68.22,-135.01,10.4,9.26
111,bislig,88,PH,1572937387,73,8.21,126.32,83.34,7.25
112,butaritari,0,KI,1572937387,75,3.07,172.79,84.18,13.62
113,sao joao da barra,0,BR,1572937387,88,-21.64,-41.05,74.71,5.5
114,makakilo city,1,US,1572937320,83,21.35,-158.09,78.8,1.45
115,lebu,56,ET,1572937387,68,8.96,38.73,59.61,2.91
116,tiksi,76,RU,1572937387,94,71.64,128.87,-12.11,2.84
117,villamaria,99,CO,1572937388,95,1.6,-77.18,49.69,4.21
118,puteyets,98,RU,1572937388,87,65.17,57.09,25.3,7.76
119,bambous virieux,40,MU,1572937388,65,-20.34,57.76,81.0,13.87
120,beringovskiy,1,RU,1572937388,86,63.05,179.32,31.1,1.45
121,saskylakh,13,RU,1572937388,96,71.97,114.09,-16.48,4.74
122,parabel,16,RU,1572937388,63,58.71,81.5,24.3,7.92
123,thompson,90,CA,1572937388,78,55.74,-97.86,8.6,5.82
124,albany,90,US,1572937171,53,42.65,-73.75,51.8,14.99
125,kerema,100,PG,1572937388,84,-7.96,145.78,77.52,4.5
126,vestmannaeyjar,75,IS,1572937388,86,63.44,-20.27,37.4,5.82
127,chuy,62,UY,1572937388,95,-33.69,-53.46,57.4,5.79
128,yumen,14,CN,1572937388,24,40.29,97.04,54.16,4.7
129,paita,8,PE,1572937388,83,-5.09,-81.11,64.22,8.05
130,najran,29,SA,1572937388,29,17.54,44.22,77.0,4.7
131,san cristobal,53,HN,1572937389,92,14.68,-86.92,66.07,2.66
132,nishihara,20,JP,1572937389,48,35.74,139.53,69.01,8.05
133,la asuncion,72,AR,1572937389,55,-26.05,-65.39,62.6,4.29
134,vila franca do campo,75,PT,1572937389,63,37.72,-25.43,60.8,5.82
135,norman wells,75,CA,1572937389,85,65.28,-126.83,17.6,11.41
136,sibut,71,CF,1572937389,78,5.73,19.09,74.86,1.16
137,damghan,0,IR,1572937389,36,36.17,54.34,52.86,4.43
138,huangchuan,75,CN,1572937389,72,24.57,102.46,62.6,15.66
139,kijang,0,KR,1572937389,37,35.24,129.21,66.2,10.29
140,airai,0,TL,1572937389,45,-8.93,125.41,82.67,8.5
141,waitati,100,NZ,1572937389,94,-45.75,170.57,53.01,11.01
142,bathsheba,40,BB,1572937389,83,13.22,-59.52,80.6,20.8
143,russell,1,US,1572937389,71,38.9,-98.86,37.4,4.7
144,syracuse,75,US,1572937143,61,43.05,-76.15,52.0,9.17
145,dikson,100,RU,1572937389,84,73.51,80.55,2.37,19.39
146,longyearbyen,20,NO,1572937390,66,78.22,15.63,14.0,11.41
147,fortuna,1,US,1572937390,100,40.6,-124.16,48.2,9.17
148,nanortalik,100,GL,1572937390,96,60.14,-45.24,35.85,14.74
149,carnarvon,94,ZA,1572937390,18,-30.97,22.13,76.98,6.6
150,zapolyarnyy,75,RU,1572937390,92,69.43,30.82,26.6,10.29
151,talara,6,PE,1572937390,90,-4.58,-81.27,65.44,19.15
152,san sebastian,10,GT,1572937390,92,14.56,-91.65,68.94,4.05
153,hofn,100,IS,1572937390,95,64.25,-15.21,34.74,10.42
154,alofi,100,NU,1572937390,83,-19.06,-169.92,69.8,4.7
155,maniitsoq,100,GL,1572937390,63,65.42,-52.9,33.91,4.76
156,marquette,1,US,1572937390,92,46.54,-87.4,33.8,5.82
157,bakchar,0,RU,1572937390,60,57.02,82.07,26.26,3.65
158,buraydah,0,SA,1572937390,83,26.33,43.97,71.6,10.29
159,isangel,75,VU,1572937390,69,-19.55,169.27,78.8,9.17
160,ponta do sol,9,BR,1572937390,89,-20.63,-46.0,68.05,1.72
161,aksu,90,KZ,1572937391,70,52.04,76.93,32.0,6.71
162,lagoa,74,PT,1572937391,87,37.14,-8.45,59.0,4.7
163,arona,40,IT,1572937391,100,45.76,8.56,53.01,1.12
164,la tuque,100,CA,1572937147,95,47.44,-72.79,37.06,12.39
165,deputatskiy,100,RU,1572937391,96,69.3,139.9,5.27,2.55
166,luanda,75,AO,1572937212,88,-8.83,13.24,77.0,3.36
167,kavaratti,40,IN,1572937391,70,10.57,72.64,86.0,11.41
168,xaltianguis,40,MX,1572937391,94,17.1,-99.71,80.6,2.06
169,grand forks,20,US,1572937203,72,47.91,-97.06,17.6,6.93
170,colac,100,AU,1572937391,65,-38.34,143.59,60.01,5.01
171,salinopolis,0,BR,1572937391,76,-0.61,-47.36,81.34,18.03
172,kudahuvadhoo,35,MV,1572937391,71,2.67,72.89,82.99,7.78
173,kuusamo,90,FI,1572937391,92,65.96,29.19,15.8,4.7
174,aguimes,20,ES,1572937392,64,27.91,-15.45,69.8,16.11
175,batagay-alyta,100,RU,1572937392,92,67.8,130.41,-1.27,7.96
176,whitecourt,100,CA,1572937392,97,54.14,-115.68,28.06,2.66
177,ayan,43,IR,1572937392,27,38.23,44.7,43.29,1.23
178,georgetown,20,GY,1572937392,100,6.8,-58.16,75.2,4.7
179,provideniya,90,RU,1572937392,68,64.42,-173.23,30.2,2.15
180,severo-kurilsk,76,RU,1572937392,92,50.68,156.12,33.28,7.27
181,puerto ayora,33,EC,1572937392,94,-0.74,-90.35,68.0,3.0
182,kenora,46,CA,1572937392,67,49.76,-94.48,17.6,17.22
183,belaya gora,100,RU,1572937392,96,68.54,146.19,4.3,4.79
184,tura,6,RU,1572937392,84,64.27,100.22,-7.07,1.41
185,sistranda,20,NO,1572937392,86,63.73,8.83,28.99,8.05
186,port lincoln,71,AU,1572937392,34,-34.72,135.86,69.19,19.28
187,seydi,0,NE,1572937392,52,13.34,7.75,66.2,4.7
188,gavle,0,SE,1572937392,67,60.67,17.14,34.0,1.99
189,hobyo,99,SO,1572937393,67,5.35,48.53,82.92,12.48
190,husavik,15,CA,1572937393,79,50.56,-96.99,15.01,4.0
191,englehart,90,CA,1572937393,96,47.82,-79.87,35.6,8.05
192,anloga,40,GH,1572937393,94,5.79,0.9,78.8,5.48
193,poum,75,MK,1572937393,81,41.28,20.71,53.6,3.11
194,viedma,0,AR,1572937393,51,-40.81,-62.99,50.43,7.78
195,cabo san lucas,40,MX,1572937218,73,22.89,-109.91,77.0,5.82
196,puerto del rosario,20,ES,1572937393,77,28.5,-13.86,68.0,6.93
197,taksimo,3,RU,1572937393,74,56.36,114.84,8.26,2.66
198,stourbridge,75,GB,1572937393,93,52.46,-2.15,48.99,10.29
199,amboise,46,FR,1572937394,93,47.41,0.98,48.2,5.82
200,pasighat,81,IN,1572937394,60,28.06,95.33,76.46,3.22
201,ugoofaaru,100,MV,1572937394,74,5.67,73.0,81.05,6.04
202,loukhi,0,RU,1572937394,92,66.08,33.04,17.35,8.03
203,camacari,40,BR,1572937394,83,-12.7,-38.32,78.8,10.29
204,kasungu,0,MW,1572937394,49,-13.04,33.48,79.21,10.85
205,leshukonskoye,1,RU,1572937394,90,64.9,45.76,22.32,8.3
206,nador,20,MA,1572937394,82,35.17,-2.93,60.8,2.24
207,quelimane,75,MZ,1572937394,58,-17.88,36.89,84.2,9.17
208,kaitangata,100,NZ,1572937394,93,-46.28,169.85,53.01,8.01
209,saint anthony,1,US,1572937394,52,43.97,-111.68,41.0,8.05
210,merauke,0,ID,1572937394,56,-8.49,140.4,85.96,15.35
211,greenville,90,US,1572937321,66,34.85,-82.4,53.6,2.01
212,saldanha,70,PT,1572937394,86,41.42,-6.55,46.17,12.06
213,inuvik,20,CA,1572937394,85,68.36,-133.71,10.4,8.48
214,esperance,40,AU,1572937394,56,-33.86,121.89,69.8,17.22
215,mandiana,71,GN,1572937395,84,10.62,-8.7,72.48,2.71
216,harper,1,US,1572937395,87,30.3,-99.24,64.99,7.61
217,cayenne,20,GF,1572937395,100,4.94,-52.33,73.4,5.48
218,shimoda,40,JP,1572937395,48,34.7,138.93,64.4,8.05
219,concepcion,100,CO,1572937395,89,9.56,-73.66,73.54,1.9
220,saint stephen,90,US,1572937395,49,45.7,-94.27,26.6,5.82
221,calama,0,CL,1572937395,53,-22.46,-68.93,50.0,17.22
222,prince rupert,90,CA,1572937395,100,54.32,-130.32,48.2,3.36
223,novodugino,100,RU,1572937395,95,55.63,34.3,50.77,15.88
224,tiarei,75,PF,1572937395,78,-17.53,-149.33,78.8,4.7
225,paramonga,81,PE,1572937395,93,-10.68,-77.82,61.02,10.13
226,sukumo,0,JP,1572937395,65,32.94,132.72,62.02,7.16
227,padang,100,ID,1572937395,72,-0.92,100.36,78.6,5.7
228,walvis bay,75,NA,1572937395,93,-22.95,14.51,55.4,3.36
229,jambi,99,ID,1572937236,46,-1.6,103.62,95.11,2.8
230,port hardy,5,CA,1572937396,87,50.7,-127.42,46.4,8.05
231,ordu,98,TR,1572937396,51,40.98,37.88,62.6,1.12
232,shache,98,CN,1572937396,21,38.42,77.24,59.07,5.99
233,mazyr,100,BY,1572937396,83,52.05,29.27,53.71,20.18
234,eberswalde,75,DE,1572937396,93,52.84,13.8,48.99,5.82
235,maldonado,40,UY,1572937396,100,-34.91,-54.96,59.0,3.36
236,alice springs,0,AU,1572937324,9,-23.7,133.88,84.2,10.29
237,touros,20,BR,1572937396,88,-5.2,-35.46,73.4,4.7
238,guerrero,85,AR,1572937396,77,-24.19,-65.45,66.2,9.17
239,ayabaca,56,PE,1572937396,91,-4.64,-79.72,57.2,1.61
240,wasilla,1,US,1572937396,100,61.58,-149.44,35.6,6.06
241,yeppoon,17,AU,1572937396,14,-23.13,150.74,95.0,12.75
242,bosaso,40,SO,1572937142,79,11.28,49.18,84.2,16.78
243,lata,0,IN,1572937397,31,30.78,78.62,39.76,9.19
244,ewa beach,1,US,1572937397,83,21.32,-158.01,78.8,1.45
245,henties bay,0,NA,1572937397,35,-22.12,14.28,70.56,4.74
246,pevek,100,RU,1572937397,80,69.7,170.27,11.68,2.66
247,salalah,20,OM,1572937397,62,17.01,54.1,86.0,5.82
248,sorong,100,ID,1572937397,60,-0.86,131.25,85.77,7.94
249,gazanjyk,0,TM,1572937397,39,39.24,55.52,44.06,14.07
250,khandyga,100,RU,1572937397,94,62.65,135.58,10.85,3.94
251,saint-francois,59,FR,1572937397,81,46.42,3.91,48.2,4.7
252,ravar,5,IR,1572937397,32,31.27,56.81,62.96,14.32
253,lengshuitan,0,CN,1572937397,38,26.41,111.6,72.61,7.58
254,asyut,100,EG,1572937397,45,27.18,31.19,66.2,5.82
255,vadamadurai,87,IN,1572937397,61,10.47,78.08,84.11,1.95
256,beyneu,0,KZ,1572937397,47,45.32,55.19,37.35,11.92
257,diapaga,0,BF,1572937398,25,12.07,1.79,74.61,3.11
258,cherskiy,99,RU,1572937398,83,68.75,161.3,12.85,3.4
259,athabasca,100,CA,1572937196,81,54.72,-113.29,26.29,1.59
260,komsomolskiy,100,RU,1572937398,95,67.55,63.78,22.87,18.23
261,porto belo,75,BR,1572937398,94,-27.15,-48.54,75.2,13.87
262,kiunga,91,PG,1572937398,88,-6.12,141.3,79.2,1.86
263,djougou,10,BJ,1572937398,72,9.71,1.67,68.0,2.24
264,kremenki,88,RU,1572937398,80,54.51,48.87,39.2,11.18
265,bonthe,51,SL,1572937398,85,7.53,-12.5,78.08,2.06
266,qaqortoq,100,GL,1572937398,95,60.72,-46.03,35.56,34.85
267,chase,1,US,1572937398,86,38.35,-98.35,39.99,5.82
268,ostrovnoy,49,RU,1572937398,87,68.05,39.51,17.6,19.51
269,montevideo,1,US,1572937398,62,44.94,-95.72,28.4,4.7
270,broome,75,GB,1572937398,100,52.47,1.45,46.0,1.12
271,kirakira,63,SB,1572937399,79,-10.46,161.92,80.82,3.36
272,sao jose da coroa grande,82,BR,1572937399,74,-8.9,-35.15,78.44,16.37
273,sosnytsya,100,UA,1572937399,91,51.52,32.5,57.96,17.36
274,margate,75,AU,1572937399,33,-43.03,147.26,60.01,12.75
275,saint-joseph,69,FR,1572937399,87,43.56,6.97,55.99,1.12
276,buta,100,CD,1572937399,89,2.79,24.73,72.23,1.59
277,luena,95,AO,1572937399,79,-11.78,19.91,68.43,4.5
278,yining,0,CN,1572937399,39,29.04,114.56,70.52,7.81
279,madaoua,34,NE,1572937399,17,14.07,5.96,78.78,7.47
280,suozhen,0,CN,1572937399,38,36.95,118.1,65.03,8.28
281,falakata,0,IN,1572937400,49,26.52,89.2,84.2,3.53
282,lumeje,75,AO,1572937400,71,-11.56,20.78,72.01,3.58
283,tigre,90,AR,1572937400,93,-34.42,-58.58,64.4,5.82
284,evensk,99,RU,1572937400,79,61.92,159.24,25.75,13.4
285,moussoro,0,TD,1572937400,15,13.64,16.49,81.03,10.74
286,matinha,2,BR,1572937400,92,-3.1,-45.04,72.61,2.98
287,contratacion,99,CO,1572937400,94,6.29,-73.47,61.81,2.33
288,souillac,98,FR,1572937400,93,45.6,-0.6,50.0,11.41
289,sooke,90,CA,1572937400,87,48.37,-123.73,51.01,3.36
290,galesong,20,ID,1572937400,55,-5.32,119.37,91.4,14.99
291,kloulklubed,90,PW,1572937400,88,7.04,134.26,78.8,18.34
292,jalu,0,LY,1572937400,40,29.03,21.55,70.09,6.62
293,dzilam gonzalez,12,MX,1572937400,91,21.28,-88.93,79.0,4.0
294,rognan,40,NO,1572937400,92,67.1,15.4,30.2,9.17
295,dudinka,20,RU,1572937401,77,69.41,86.18,3.2,20.13
296,abonnema,75,NG,1572937401,88,4.71,6.79,73.4,3.29
297,sergeyevka,45,KZ,1572937401,57,53.88,67.42,31.24,12.66
298,geraldton,75,CA,1572937401,73,49.72,-86.95,19.4,14.99
299,samarai,95,PG,1572937401,91,-10.62,150.67,75.2,7.76
300,pisz,60,PL,1572937401,94,53.63,21.81,44.37,10.33
301,yarada,40,IN,1572937401,49,17.65,83.27,89.6,11.41
302,eyrarbakki,75,IS,1572937401,86,63.86,-21.15,37.4,5.82
303,constitucion,100,MX,1572937401,69,23.99,-104.67,59.0,3.15
304,road town,1,VG,1572937401,78,18.42,-64.62,82.0,6.93
305,kyshtovka,0,RU,1572937401,63,56.56,76.62,26.92,8.7
306,saint-augustin,90,CA,1572937401,65,45.63,-73.98,48.0,16.11
307,arlit,0,NE,1572937401,15,18.74,7.39,79.92,7.16
308,mayo,5,CA,1572937401,77,63.59,-135.9,5.0,10.29
309,tamandare,58,BR,1572937402,97,-8.28,-70.75,71.46,2.86
310,almaznyy,93,RU,1572937402,81,48.03,40.04,42.8,13.42
311,wanning,75,AT,1572937402,100,48.64,13.53,48.0,5.82
312,salym,100,RU,1572937402,94,60.06,71.48,25.92,14.7
313,tuatapere,100,NZ,1572937402,81,-46.13,167.69,53.01,8.01
314,mitsamiouli,40,KM,1572937402,70,-11.38,43.28,84.2,8.05
315,livingston,20,US,1572937402,93,32.58,-88.19,48.99,0.87
316,portland,75,US,1572937151,57,43.66,-70.25,51.01,8.05
317,chimoio,75,MZ,1572937402,68,-19.11,33.48,71.6,5.97
318,torbay,5,CA,1572937402,100,47.66,-52.73,37.99,6.93
319,maceio,20,BR,1572937308,94,-9.67,-35.74,69.8,5.82
320,muros,75,ES,1572937402,93,42.77,-9.06,57.0,6.93
321,taltal,14,CL,1572937333,87,-25.41,-70.49,51.84,4.97
322,lac du bonnet,79,CA,1572937402,79,50.25,-96.06,12.0,4.0
323,deloraine,40,AU,1572937402,58,-41.53,146.66,55.99,24.16
324,waipawa,5,NZ,1572937403,60,-39.94,176.59,60.01,7.0
325,berlevag,75,NO,1572937403,92,70.86,29.09,35.6,6.93
326,riyadh,0,SA,1572937403,41,24.63,46.72,77.0,3.36
327,bud,0,NO,1572937403,67,62.91,6.91,33.8,9.17
328,shahr-e babak,0,IR,1572937403,45,30.12,55.12,56.82,4.25
329,clyde river,90,CA,1572937403,92,70.47,-68.59,19.4,12.75
330,amga,100,RU,1572937403,86,60.89,131.98,10.02,7.02
331,leh,16,IN,1572937403,30,34.16,77.58,28.35,1.52
332,mehamn,75,NO,1572937403,80,71.03,27.85,37.4,10.29
333,belle fourche,75,US,1572937403,100,44.67,-103.85,32.0,4.7
334,roros,90,NO,1572937403,91,62.57,11.38,-2.21,1.12
335,gat,56,SN,1572937403,34,14.69,-16.54,80.6,11.41
336,davenport,1,US,1572937251,74,41.52,-90.58,35.6,4.7
337,kruisfontein,34,ZA,1572937404,60,-34.0,24.73,68.18,8.93
338,nantucket,75,US,1572937404,71,41.28,-70.1,55.4,9.17
339,moroni,40,GR,1572937404,64,35.09,24.92,77.0,17.22
340,nivala,0,FI,1572937404,91,63.93,24.96,14.0,2.57
341,balikpapan,100,ID,1572937404,59,-1.24,116.86,87.91,7.61
342,coquimbo,0,CL,1572937404,56,-29.95,-71.34,55.99,10.54
343,red bluff,1,US,1572937404,38,40.18,-122.24,62.01,6.93
344,oktyabrskoye,0,RU,1572937404,63,56.73,85.44,26.6,6.71
345,tasiilaq,100,GL,1572937404,65,65.61,-37.64,23.32,28.92
346,jinhua,38,CN,1572937134,53,29.11,119.65,65.89,5.88
347,sabang,78,PH,1572937404,75,13.8,121.11,86.0,3.0
348,normandin,90,CA,1572937404,86,48.84,-72.53,37.4,21.92
349,bayshore gardens,1,US,1572937404,94,27.43,-82.59,77.0,6.93
350,brae,20,GB,1572937405,80,60.4,-1.35,41.0,14.99
351,salinas,90,US,1572937164,93,36.67,-121.66,54.0,2.44
352,bandarbeyla,100,SO,1572937405,79,9.49,50.81,80.87,13.38
353,san patricio,89,PY,1572937405,97,-26.98,-56.83,71.35,3.11
354,xichang,96,CN,1572937405,81,27.88,102.25,51.73,5.23
355,atambua,15,ID,1572937405,65,-9.11,124.89,83.37,6.6
356,kaeo,24,NZ,1572937405,65,-35.1,173.78,70.0,1.99
357,verkhnyaya toyma,100,RU,1572937405,89,62.24,45.0,23.99,3.15
358,port-gentil,75,GA,1572937405,94,-0.72,8.78,75.2,8.84
359,victor harbor,93,AU,1572937405,32,-35.55,138.62,69.8,16.11
360,gravdal,54,NO,1572937405,48,59.79,5.78,41.0,5.82
361,shingu,20,JP,1572937405,48,33.72,135.99,66.2,8.05
362,taoudenni,0,ML,1572937405,28,22.68,-3.98,70.21,2.17
363,san felipe,81,CL,1572937405,99,-32.75,-70.73,55.0,1.41
364,odessa,1,US,1572937324,41,31.85,-102.37,59.0,13.87
365,impfondo,97,CD,1572937406,88,1.62,18.06,72.09,1.59
366,kutum,0,SD,1572937406,24,14.2,24.66,70.61,8.32
367,kenai,75,US,1572937406,74,60.55,-151.26,39.0,5.82
368,borba,4,BR,1572937406,93,-4.39,-59.59,74.3,1.66
369,carballo,40,ES,1572937406,87,43.21,-8.69,57.99,13.87
370,bari,0,IT,1572937144,60,41.13,16.86,68.0,9.17
371,tabas,0,IR,1572937406,24,33.6,56.92,68.0,6.93
372,nizwa,12,OM,1572937406,46,22.93,57.53,76.64,3.58
373,kushima,20,JP,1572937406,48,31.5,131.29,68.0,5.82
374,jiangyou,100,CN,1572937406,92,31.78,104.73,49.21,2.98
375,tecozautla,75,MX,1572937407,82,20.53,-99.63,59.0,5.82
376,hay river,90,CA,1572937208,85,60.82,-115.79,19.4,18.34
377,lompoc,90,US,1572937407,93,34.64,-120.46,55.0,4.7
378,kaspiyskiy,35,RU,1572937407,71,45.39,47.37,55.24,25.84
379,iqaluit,75,CA,1572937407,78,63.75,-68.52,14.0,13.87
380,angoche,0,MZ,1572937407,58,-16.23,39.91,84.34,7.96
381,chapleau,80,CA,1572937407,96,47.85,-83.4,24.4,4.88
382,zhigansk,100,RU,1572937407,94,66.77,123.37,-7.64,13.35
383,san juan,0,AR,1572937407,28,-31.54,-68.53,67.1,29.64
384,vila velha,75,BR,1572937407,74,-3.71,-38.6,80.6,13.87
385,shakawe,96,BW,1572937407,40,-18.36,21.84,80.85,11.86
386,kazachinskoye,0,RU,1572937407,60,57.69,93.28,25.5,3.51
387,katsuura,20,JP,1572937407,48,33.93,134.5,68.0,13.87
388,smithers,75,CA,1572937407,87,54.78,-127.17,42.8,4.7
389,tighina,0,RO,1572937408,93,44.57,24.3,51.01,3.56
390,hervey bay,0,AU,1572937408,10,-25.3,152.85,88.0,17.22
391,nome,90,US,1572937408,88,30.04,-94.42,69.8,4.7
392,yarmouth,75,CA,1572937408,86,43.84,-66.12,39.99,3.36
393,tecoanapa,40,MX,1572937408,94,16.99,-99.26,80.6,2.06
394,sinnamary,5,GF,1572937408,80,5.38,-52.96,81.5,17.2
395,san policarpo,76,PH,1572937408,74,12.18,125.51,86.99,3.2
396,palana,82,RU,1572937408,79,59.08,159.95,30.65,8.61
397,santa cruz,13,BR,1572937312,96,-6.22,-36.02,68.36,6.76
398,faanui,84,PF,1572937408,80,-16.48,-151.75,79.81,7.52
399,sawakin,72,SD,1572937408,65,19.1,37.33,84.76,7.47
400,effium,48,NG,1572937408,96,6.63,8.06,74.1,6.17
401,ostersund,90,SE,1572937408,92,63.18,14.64,18.0,3.36
402,igdir,26,IR,1572937408,87,37.52,45.24,46.4,4.7
403,lewistown,40,US,1572937409,93,40.39,-90.15,41.0,5.82
404,davila,75,PH,1572937409,83,18.47,120.58,82.4,5.82
405,araouane,10,ML,1572937409,22,18.9,-3.53,75.76,7.65
406,wakkanai,75,JP,1572937409,65,45.41,141.67,44.6,8.05
407,batemans bay,76,AU,1572937409,60,-35.71,150.18,61.0,1.99
408,dayong,2,CN,1572937409,32,25.02,118.29,80.6,15.66
409,birobidzhan,100,RU,1572937409,90,48.79,132.93,28.2,0.98
410,nalut,0,LY,1572937409,48,31.86,10.98,66.42,9.84
411,seymchan,96,RU,1572937409,89,62.93,152.39,10.11,8.79
412,arman,96,RU,1572937409,68,59.7,150.17,35.51,16.84
413,pitimbu,40,BR,1572937409,88,-7.47,-34.81,73.4,4.7
414,guerrero negro,0,MX,1572937409,75,27.97,-114.04,65.73,7.54
415,sargatskoye,0,RU,1572937409,56,55.6,73.49,28.56,8.55
416,umm kaddadah,0,SD,1572937409,21,13.6,26.69,77.4,19.19
417,gigmoto,43,PH,1572937372,69,13.78,124.39,84.2,2.53
418,lokoja,60,NG,1572937410,80,7.8,6.74,74.95,2.71
419,hasaki,20,JP,1572937296,39,35.73,140.83,69.01,6.93
420,kuminskiy,100,RU,1572937410,88,58.67,66.57,32.22,12.35
421,tessalit,10,ML,1572937410,20,20.2,1.01,74.1,6.8
422,severnoye,88,RU,1572937410,77,54.09,52.54,32.83,18.66
423,malaya vishera,100,RU,1572937410,95,58.85,32.22,32.95,12.55
424,sumoto,20,JP,1572937410,48,34.35,134.9,68.0,4.7
425,altamira,2,BR,1572937410,93,-3.2,-52.21,74.1,3.02
426,hovd,29,NO,1572937410,78,63.83,10.7,28.99,5.82
427,malpe,20,IN,1572937410,66,13.35,74.72,89.6,1.21
428,hambantota,40,LK,1572937410,74,6.12,81.12,87.8,2.24
429,pacific grove,90,US,1572937410,87,36.62,-121.92,54.0,4.7
430,dwarka,0,IN,1572937410,47,28.58,77.04,82.4,11.41
431,nyagan,100,RU,1572937410,96,62.14,65.43,32.99,10.29
432,jeremie,7,HT,1572937411,84,18.65,-74.12,69.06,1.05
433,flinders,20,AU,1572937411,51,-34.58,150.85,66.0,12.75
434,pringsewu,37,ID,1572937411,50,-5.36,104.98,87.57,7.36
435,peniche,20,PT,1572937411,82,39.36,-9.38,60.01,5.82
436,ketchikan,90,US,1572937411,87,55.34,-131.65,50.0,3.36
437,fushun,0,CN,1572937411,18,41.89,123.95,48.2,6.71
438,yulara,0,AU,1572937411,8,-25.24,130.99,87.8,10.29
439,kamaishi,20,JP,1572937411,43,39.28,141.86,55.4,6.93
440,richards bay,59,ZA,1572937411,79,-28.77,32.06,70.97,17.58
441,aripuana,19,BR,1572937411,94,-9.17,-60.63,72.86,0.31
442,long branch,90,US,1572937411,76,37.88,-88.58,48.99,3.36
443,ocean city,90,US,1572937411,77,30.44,-86.61,66.99,4.7
444,mackay,90,CA,1572937411,100,53.65,-115.58,30.2,2.24
445,astoria,75,US,1572937412,93,46.19,-123.83,48.0,3.36
446,bolobo,99,CD,1572937412,88,-2.17,16.23,74.35,2.62
447,paamiut,100,GL,1572937412,66,61.99,-49.67,37.99,0.65
448,snezhnogorsk,75,RU,1572937412,85,69.19,33.23,19.4,11.18
449,kayerkan,20,RU,1572937412,77,69.35,87.76,3.2,20.13
450,port blair,98,IN,1572937412,76,11.67,92.75,82.36,13.29
451,balakhninskiy,100,RU,1572937412,86,58.01,114.28,8.76,3.87
452,oussouye,23,SN,1572937412,83,12.49,-16.54,82.4,4.7
453,la ronge,40,CA,1572937412,84,55.1,-105.3,5.0,3.87
454,kaisiadorys,90,LT,1572937412,87,54.87,24.45,50.0,6.93
455,namibe,99,AO,1572937412,88,-15.19,12.15,73.94,9.6
456,upata,10,VE,1572937413,89,8.02,-62.41,77.0,1.99
457,mantua,75,IT,1572937413,93,45.16,10.79,57.2,8.05
458,makokou,92,GA,1572937413,97,0.56,12.85,70.02,0.98
459,ersekvadkert,82,HU,1572937413,100,48.0,19.2,48.99,4.7
460,chulman,100,RU,1572937413,90,56.84,124.9,3.38,13.22
461,thunder bay,40,CA,1572937225,73,48.41,-89.26,23.0,8.05
462,nelson bay,18,AU,1572937413,59,-32.72,152.14,64.99,19.46
463,slave lake,90,CA,1572937181,92,55.28,-114.77,26.6,2.71
464,phan thiet,100,VN,1572937413,70,10.93,108.1,82.51,5.7
465,norfolk,90,US,1572937411,82,36.85,-76.29,64.4,4.7
466,oranjestad,20,AW,1572937205,74,12.52,-70.03,84.2,16.11
467,north bend,90,US,1572937300,100,43.41,-124.22,46.0,5.41
468,linhares,1,BR,1572937413,96,-19.38,-40.06,70.99,3.98
469,guiratinga,26,BR,1572937413,65,-16.35,-53.76,75.38,1.74
470,tibana,0,RO,1572937414,62,46.98,27.33,64.0,4.7
471,valdivia,0,CL,1572937414,98,-39.81,-73.25,35.15,0.6
472,tigil,79,RU,1572937414,74,57.8,158.67,32.18,12.62
473,namtsy,40,RU,1572937414,78,62.72,129.66,10.4,8.95
474,kot addu,0,PK,1572937209,45,30.47,70.97,84.2,9.17
475,ambon,75,FR,1572937414,100,47.55,-2.56,52.0,8.05
476,trifesti,0,RO,1572937414,62,47.45,27.52,64.0,4.7
477,ulaanbaatar,18,MN,1572937259,28,47.92,106.92,44.6,6.71
478,huarmey,81,PE,1572937414,87,-10.07,-78.15,60.73,2.01
479,beterou,15,BJ,1572937414,96,9.2,2.26,71.71,2.68
480,male,100,UA,1572937414,88,50.74,33.7,58.21,19.82
481,cururupu,4,BR,1572937414,98,-1.82,-44.87,71.8,2.55
482,griffith,53,AU,1572937414,24,-34.29,146.06,68.0,14.99
483,muisne,92,EC,1572937415,89,0.61,-80.02,74.3,9.19
484,grafton,40,AU,1572937415,42,-29.69,152.93,66.99,19.46
485,fare,96,PF,1572937415,80,-16.7,-151.02,80.22,8.46
486,socorro,78,US,1572937415,42,31.65,-106.3,63.0,3.36
487,necochea,16,AR,1572937415,72,-38.55,-58.74,44.92,8.3
488,mount isa,42,AU,1572937415,9,-20.73,139.49,93.2,17.22
489,mount gambier,90,AU,1572937415,62,-37.83,140.78,59.0,19.46
490,vanimo,100,PG,1572937415,68,-2.67,141.3,82.15,1.25
491,lazaro cardenas,97,MX,1572937415,70,28.39,-105.62,59.0,0.6
492,eureka,1,US,1572937415,100,40.8,-124.16,48.2,9.17
493,camacha,40,PT,1572937415,72,33.08,-16.33,66.2,16.11
494,lorengau,100,PG,1572937415,67,-2.02,147.27,82.47,18.23
495,ahipara,41,NZ,1572937415,71,-35.17,173.16,70.0,3.24
496,carutapera,2,BR,1572937415,79,-1.2,-46.02,80.78,18.63
497,andra,100,RU,1572937415,94,62.52,65.89,30.76,8.19
498,pocone,100,BR,1572937416,80,-16.26,-56.62,75.4,3.56
499,eregli,85,TR,1572937416,36,37.51,34.05,54.57,1.59
500,klaksvik,100,FO,1572937416,73,62.23,-6.59,35.6,17.22
501,seoul,1,KR,1572937411,51,37.57,126.98,64.4,8.05
502,umba,26,RU,1572937416,83,66.69,34.34,28.26,22.77
503,sarankhola,0,BD,1572937416,57,22.31,89.79,85.55,5.5
504,floro,7,NO,1572937416,74,61.6,5.03,37.0,6.93
505,helong,0,CN,1572937416,32,25.94,116.13,75.4,7.14
506,mercedes,24,UY,1572937416,91,-33.25,-58.03,64.99,8.99
507,fayetteville,75,US,1572937416,87,36.06,-94.16,53.01,4.7
508,danielskuil,0,ZA,1572937416,26,-28.19,23.54,78.4,29.37
509,namwala,0,ZM,1572937416,33,-15.75,26.45,80.85,13.4
510,laguna,40,BZ,1572937416,94,16.17,-88.94,73.4,1.7
511,moree,0,AU,1572937416,21,-29.46,149.84,71.6,23.04
512,salur,0,IN,1572937417,55,18.52,83.21,77.56,5.32
513,jiaozuo,1,CN,1572937417,34,35.21,113.25,70.05,6.17
514,warmbad,77,DE,1572937417,76,50.67,13.08,50.0,10.29
515,oistins,40,BB,1572937417,83,13.07,-59.53,80.6,20.8
516,skibbereen,75,IE,1572937417,81,51.55,-9.27,46.4,17.22
517,nabisar,63,PK,1572937417,30,25.07,69.64,89.55,3.58
518,damietta,0,EG,1572937417,73,31.42,31.81,75.2,9.17
519,angra dos reis,11,BR,1572937417,80,-23.01,-44.32,73.71,2.3
520,lavrentiya,0,RU,1572937417,70,65.58,-170.99,26.26,4.43
521,mackenzie,90,CA,1572937417,93,55.34,-123.09,35.6,4.7
522,kiama,20,AU,1572937417,51,-34.67,150.86,64.99,12.75
523,kavieng,100,PG,1572937417,86,-2.57,150.8,79.23,20.98
524,valparaiso,75,US,1572937417,69,41.47,-87.06,42.01,6.93
525,umm lajj,0,SA,1572937417,20,25.02,37.27,82.56,4.0
526,buchanan,75,LR,1572937418,94,5.88,-10.05,75.2,3.36
527,charters towers,64,AU,1572937418,26,-20.07,146.27,94.14,17.11
528,zaykovo,100,RU,1572937418,81,57.56,62.76,35.11,12.03
529,pangnirtung,100,CA,1572937418,67,66.15,-65.72,20.61,2.53
530,baherden,0,TM,1572937418,35,38.44,57.43,46.76,18.32
531,vardo,1,US,1572937418,86,39.62,-77.74,48.2,6.17
532,murchison,100,AU,1572937418,24,-36.62,145.22,66.99,10.04
533,kjopsvik,40,NO,1572937418,92,68.1,16.37,25.0,9.17
534,tual,72,ID,1572937418,69,-5.67,132.75,82.85,11.61
535,metro,55,ID,1572937418,35,-5.11,105.31,94.66,11.25
536,bonavista,0,CA,1572937418,89,48.65,-53.11,36.0,5.01
537,huilong,100,CN,1572937418,79,31.15,106.5,60.87,3.58
538,cervo,47,BR,1572937418,81,-22.19,-46.24,67.17,4.5
539,te anau,92,NZ,1572937419,97,-45.41,167.72,50.11,2.66
540,sambava,56,MG,1572937419,56,-14.27,50.17,83.28,4.59
541,razvilnoye,75,RU,1572937419,61,46.24,41.3,46.02,8.75
542,kununurra,70,AU,1572937419,32,-15.77,128.74,95.0,5.82
543,iguala,91,MX,1572937419,92,18.34,-99.54,64.99,2.51
544,harsin,0,IR,1572937419,50,34.27,47.59,57.2,6.93
545,ufa,90,RU,1572937419,74,54.73,55.95,32.0,20.13
546,quanzhou,2,CN,1572937419,32,24.9,118.59,80.6,15.66
547,batangafo,7,CF,1572937419,61,7.3,18.29,74.91,0.92
548,zelenoborskiy,10,RU,1572937419,86,66.84,32.36,15.91,5.73
549,victoria point,26,AU,1572937419,6,-27.58,153.3,82.0,21.92
